{"type":"FeatureCollection","features":[{"type":"Feature","geometry":{"type":"Point","coordinates":[4.351715,50.855333]},"properties":{"nom":"KVS (Koninklijke Vlaamse Schouwburg)","naam":"KVS (Koninklijke Vlaamse Schouwburg)","adresse":"Quai aux Pierres de Taille, 7","adres":"Arduinkaai, 7","code_postal":"1000","commune":"Bruxelles","gemeente":"Brussel","lien_web":"https:\/\/www.kvs.be\/"}},{"type":"Feature","geometry":{"type":"Point","coordinates":[4.358883,50.877142]},"properties":{"nom":"Th\u00e9\u00e2tre Royal Les Coeurs de Bois","naam":"Th\u00e9\u00e2tre Royal Les Coeurs de Bois","adresse":"Rue Hubert Stiernet, 2F-4","adres":"Hubert Stiernetstraat, 2F-4","code_postal":"1020","commune":"Laeken","gemeente":"Laken","lien_web":"https:\/\/www.lescoeursdebois.be\/"}},{"type":"Feature","geometry":{"type":"Point","coordinates":[4.355030247401264,50.85484138176513]},"properties":{"nom":"Th\u00e9\u00e2tre National Wallonie-Bruxelles","naam":"Th\u00e9\u00e2tre National Wallonie-Bruxelles","adresse":"Boulevard Emile Jacqmain, 111-115","adres":"Emile Jacqmainlaan, 111-115","code_postal":"1000","commune":"Bruxelles","gemeente":"Brussel","lien_web":"https:\/\/www.theatrenational.be\/"}},{"type":"Feature","geometry":{"type":"Point","coordinates":[4.3490191,50.8408156]},"properties":{"nom":"Les Brigittines","naam":"Les Brigittines","adresse":"Petite rue des Brigittines, 1","adres":"Korte Brigittinenstraat, 1","code_postal":"1000","commune":"Bruxelles","gemeente":"Brussel","lien_web":"https:\/\/www.brigittines.be\/"}},{"type":"Feature","geometry":{"type":"Point","coordinates":[4.371463,50.812219]},"properties":{"nom":"Th\u00e9\u00e2tre de Poche","naam":"Theater de Poche","adresse":"Chemin du Gymnase, 1A","adres":"Gymnasiumweg, 1a","code_postal":"1000","commune":"Bruxelles","gemeente":"Brussel","lien_web":"https:\/\/poche.be\/"}},{"type":"Feature","geometry":{"type":"Point","coordinates":[4.3463673072633835,50.84702420026191]},"properties":{"nom":"Centre culturel des Riches-Claires","naam":"Centre culturel des Riches-Claires","adresse":"Rue des Riches-Claires, 24","adres":"Rijkeklarenstraat, 24","code_postal":"1000","commune":"Bruxelles","gemeente":"Brussel","lien_web":"https:\/\/lesrichesclaires.be\/"}},{"type":"Feature","geometry":{"type":"Point","coordinates":[4.356207207020182,50.85220563765074]},"properties":{"nom":"Th\u00e9\u00e2tre de la Place des Martyrs","naam":"Th\u00e9\u00e2tre de la Place des Martyrs","adresse":"Place des Martyrs,\u00a022","adres":"Martelaarsplein, 22","code_postal":"1000","commune":"Bruxelles","gemeente":"Brussel","lien_web":"https:\/\/theatre-martyrs.be\/"}},{"type":"Feature","geometry":{"type":"Point","coordinates":[4.368731231149901,50.86677408269899]},"properties":{"nom":"Kaaitheater (b\u00e2timent pl. Sainctelette en r\u00e9novation)","naam":"Kaaitheater (gebouw aan Sainctelettesquare in renovatie)","adresse":"Bureaux temporaires: Rue Gallait, 76-78","adres":"Tijdelijke kantoren: Gallaitstraat, 76-78","code_postal":"1030","commune":"Schaerbeek","gemeente":"Schaarbeek","lien_web":"https:\/\/kaaitheater.be\/"}},{"type":"Feature","geometry":{"type":"Point","coordinates":[4.346087,50.839214]},"properties":{"nom":"Th\u00e9\u00e2tre Les Tanneurs","naam":"Theater les Tanneurs","adresse":"Rue des Tanneurs, 75-77","adres":"Huidevettersstraat, 75-77","code_postal":"1000","commune":"Bruxelles","gemeente":"Brussel","lien_web":"https:\/\/lestanneurs.be\/"}},{"type":"Feature","geometry":{"type":"Point","coordinates":[4.346158937422632,50.85326442751429]},"properties":{"nom":"Kaaitheater @ Bronks","naam":"Kaaitheater @ Bronks","adresse":"rue du March\u00e9 aux Porcs, 15","adres":"Varkensmarkt, 15","code_postal":"1000","commune":"Bruxelles","gemeente":"Brussel","lien_web":"https:\/\/kaaitheater.be\/fr\/node\/1720"}},{"type":"Feature","geometry":{"type":"Point","coordinates":[4.346158937422632,50.85326442751429]},"properties":{"nom":"Bronks","naam":"Bronks","adresse":"rue du March\u00e9 aux Porcs, 15","adres":"Varkensmarkt, 15","code_postal":"1000","commune":"Bruxelles","gemeente":"Brussel","lien_web":"https:\/\/www.bronks.be\/nl\/"}},{"type":"Feature","geometry":{"type":"Point","coordinates":[4.355227266699993,50.84851781706615]},"properties":{"nom":"Th\u00e9\u00e2tre Royal des Galeries","naam":"Th\u00e9\u00e2tre des Galeries","adresse":"Galerie du Roi, 32","adres":"Koningsgalerij, 32","code_postal":"1000","commune":"Bruxelles","gemeente":"Brussel","lien_web":"https:\/\/www.trg.be\/"}},{"type":"Feature","geometry":{"type":"Point","coordinates":[4.365351,50.846238]},"properties":{"nom":"Th\u00e9\u00e2tre Royal du Parc","naam":"Th\u00e9\u00e2tre Royal du Parc","adresse":"Rue de la Loi, 3","adres":"Wetstraat, 3","code_postal":"1000","commune":"Bruxelles","gemeente":"Brussel","lien_web":"https:\/\/www.theatreduparc.be\/"}},{"type":"Feature","geometry":{"type":"Point","coordinates":[4.35292,50.847395]},"properties":{"nom":"Th\u00e9\u00e2tre Royal de Toone","naam":"Koninklijk theater de Toone","adresse":"Rue du March\u00e9-aux-Herbes, 66","adres":"Grasmarkt, 66","code_postal":"1000","commune":"Bruxelles","gemeente":"Brussel","lien_web":"http:\/\/www.toone.be\/"}},{"type":"Feature","geometry":{"type":"Point","coordinates":[4.355027749608009,50.84965811891715]},"properties":{"nom":"Th\u00e9\u00e2tre Royal de la Monnaie \/ De Munt","naam":"Th\u00e9\u00e2tre royal de la Monnaie \/ De Munt","adresse":"Rue L\u00e9opold, 23","adres":"Leopoldstraat, 23","code_postal":"1000","commune":"Bruxelles","gemeente":"Brussel","lien_web":"https:\/\/www.lamonnaiedemunt.be\/"}},{"type":"Feature","geometry":{"type":"Point","coordinates":[4.359595,50.851967]},"properties":{"nom":"La montagne magique","naam":"La montagne magique","adresse":"Rue du Marais, 57","adres":"Broekstraat, 57","code_postal":"1000","commune":"Bruxelles","gemeente":"Brussel","lien_web":"https:\/\/lamontagnemagique.be\/"}},{"type":"Feature","geometry":{"type":"Point","coordinates":[4.340124207772429,50.850625589283936]},"properties":{"nom":"Kaaistudio's","naam":"Kaaistudio's","adresse":"Rue Notre Dame du Sommeil, 81","adres":"O.L.V. van Vaakstraat, 81","code_postal":"1000","commune":"Bruxelles","gemeente":"Brussel","lien_web":"https:\/\/kaaitheater.be\/fr\/node\/1743"}},{"type":"Feature","geometry":{"type":"Point","coordinates":[4.351278465815653,50.85538412020605]},"properties":{"nom":"Kaaitheater @ KVS BOX","naam":"Kaaitheater @ KVS BOX","adresse":"Quai aux Pierres de Taille, 7","adres":"Arduinkaai, 7","code_postal":"1000","commune":"Bruxelles","gemeente":"Brussel","lien_web":"https:\/\/kaaitheater.be\/fr\/locations\/kvs-box"}},{"type":"Feature","geometry":{"type":"Point","coordinates":[4.355030247401264,50.85484138176513]},"properties":{"nom":"Kaaitheater @ Th\u00e9\u00e2tre National Wallonie-Bruxelles","naam":"Kaaitheater @ Th\u00e9\u00e2tre National Wallonie-Bruxelles","adresse":"Boulevard Emile Jacqmain, 111-115","adres":"Emile Jacqmainlaan, 111-115","code_postal":"1000","commune":"Bruxelles","gemeente":"Brussel","lien_web":"https:\/\/kaaitheater.be\/fr\/node\/1715"}},{"type":"Feature","geometry":{"type":"Point","coordinates":[4.34839796162494,50.848610110332395]},"properties":{"nom":"Kaaitheater @ Beursschouwburg","naam":"Kaaitheater @ Beursschouwburg","adresse":"Rue Auguste Orts, 20-28","adres":"Auguste Ortsstraat, 20-28","code_postal":"1000","commune":"Bruxelles","gemeente":"Brussel","lien_web":"https:\/\/kaaitheater.be\/fr\/node\/1739"}},{"type":"Feature","geometry":{"type":"Point","coordinates":[4.34839796162494,50.848610110332395]},"properties":{"nom":"Beursschouwburg","naam":"Beursschouwburg","adresse":"Rue Auguste Orts, 20-28","adres":"Auguste Ortsstraat, 20-28","code_postal":"1000","commune":"Bruxelles","gemeente":"Brussel","lien_web":"https:\/\/beursschouwburg.be\/nl\/"}},{"type":"Feature","geometry":{"type":"Point","coordinates":[4.3473587374223435,50.85367502614279]},"properties":{"nom":"Le Jardin de ma S\u0153ur","naam":"Le Jardin de ma S\u0153ur","adresse":"Rue du Grand Hospice, 54","adres":"Grootgodhuisstraat, 54","code_postal":"1000","commune":"Bruxelles","gemeente":"Brussel","lien_web":"https:\/\/www.lejardindemasoeur.be\/"}}]}